[
  {
    "STREET_NAME": "Lentedreef",
    "STREET_EXTRA": "",
    "POSTALCODE": "3010",
    "CITY": "Kessel-Lo",
    "HEIGHT": "150",
    "SENSOR_POSITION": "9",
    "INDUSTRY_IN_AREA": "2",
    "OVEN_IN_AREA": "8",
    "TRAFFIC_IN_AREA": "6",
    "LAT": "50.88996",
    "LON": "4.7214",
    "SDS011ID": "6561",
    "DHTID": ""
  },
  {
    "STREET_NAME": "Schapenstraat",
    "STREET_EXTRA": "",
    "POSTALCODE": "3000",
    "CITY": "Leuven",
    "HEIGHT": "",
    "SENSOR_POSITION": "",
    "INDUSTRY_IN_AREA": "",
    "OVEN_IN_AREA": "",
    "TRAFFIC_IN_AREA": "",
    "LAT": "50.87325",
    "LON": "4.6982",
    "SDS011ID": "8745",
    "DHTID": "8746"
  },
  {
    "STREET_NAME": "Ernest Solvaystraat",
    "STREET_EXTRA": "1\/3",
    "POSTALCODE": "3010",
    "CITY": "Kessel-Lo",
    "HEIGHT": "300",
    "SENSOR_POSITION": "10",
    "INDUSTRY_IN_AREA": "3",
    "OVEN_IN_AREA": "4",
    "TRAFFIC_IN_AREA": "7",
    "LAT": "50.88209",
    "LON": "4.7190",
    "SDS011ID": "8765",
    "DHTID": "8766"
  },
  {
    "STREET_NAME": "Tervuursevest",
    "STREET_EXTRA": "",
    "POSTALCODE": "3001",
    "CITY": "Heverlee",
    "HEIGHT": "800",
    "SENSOR_POSITION": "8",
    "INDUSTRY_IN_AREA": "1",
    "OVEN_IN_AREA": "3",
    "TRAFFIC_IN_AREA": "10",
    "LAT": "50.86897",
    "LON": "4.6961",
    "SDS011ID": "8769",
    "DHTID": "8770"
  },
  {
    "STREET_NAME": "Alfred Delaunoislaan",
    "STREET_EXTRA": "",
    "POSTALCODE": "3001",
    "CITY": "Heverlee",
    "HEIGHT": "350",
    "SENSOR_POSITION": "9",
    "INDUSTRY_IN_AREA": "5",
    "OVEN_IN_AREA": "6",
    "TRAFFIC_IN_AREA": "9",
    "LAT": "50.87242",
    "LON": "4.7167",
    "SDS011ID": "8773",
    "DHTID": "8774"
  },
  {
    "STREET_NAME": "Dekenstraat",
    "STREET_EXTRA": "",
    "POSTALCODE": "3000",
    "CITY": "Leuven",
    "HEIGHT": "400",
    "SENSOR_POSITION": "10",
    "INDUSTRY_IN_AREA": "1",
    "OVEN_IN_AREA": "1",
    "TRAFFIC_IN_AREA": "8",
    "LAT": "50.87275",
    "LON": "4.7118",
    "SDS011ID": "8777",
    "DHTID": "8778"
  },
  {
    "STREET_NAME": "Gemeenteplein",
    "STREET_EXTRA": "",
    "POSTALCODE": "3010",
    "CITY": "Kessel-Lo",
    "HEIGHT": "250",
    "SENSOR_POSITION": "9",
    "INDUSTRY_IN_AREA": "5",
    "OVEN_IN_AREA": "5",
    "TRAFFIC_IN_AREA": "7",
    "LAT": "50.89062",
    "LON": "4.7300",
    "SDS011ID": "8779",
    "DHTID": "8780"
  },
  {
    "STREET_NAME": "Diestsesteenweg",
    "STREET_EXTRA": "thv Paradox",
    "POSTALCODE": "3010",
    "CITY": "Kessel-Lo",
    "HEIGHT": "300",
    "SENSOR_POSITION": "10",
    "INDUSTRY_IN_AREA": "1",
    "OVEN_IN_AREA": "8",
    "TRAFFIC_IN_AREA": "10",
    "LAT": "50.88387",
    "LON": "4.7205",
    "SDS011ID": "8781",
    "DHTID": "8782"
  },
  {
    "STREET_NAME": "Leopold Ruelensstraat",
    "STREET_EXTRA": "",
    "POSTALCODE": "3010",
    "CITY": "Kessel-Lo",
    "HEIGHT": "400",
    "SENSOR_POSITION": "10",
    "INDUSTRY_IN_AREA": "1",
    "OVEN_IN_AREA": "8",
    "TRAFFIC_IN_AREA": "3",
    "LAT": "50.89167",
    "LON": "4.7253",
    "SDS011ID": "8789",
    "DHTID": "8790"
  },
  {
    "STREET_NAME": "Meugenslaan",
    "STREET_EXTRA": "",
    "POSTALCODE": "3010",
    "CITY": "Kessel-Lo",
    "HEIGHT": "285",
    "SENSOR_POSITION": "10",
    "INDUSTRY_IN_AREA": "1",
    "OVEN_IN_AREA": "4",
    "TRAFFIC_IN_AREA": "1",
    "LAT": "50.88914",
    "LON": "4.7445",
    "SDS011ID": "8791",
    "DHTID": "8792"
  },
  {
    "STREET_NAME": "Oudebaan",
    "STREET_EXTRA": "",
    "POSTALCODE": "3000",
    "CITY": "Leuven",
    "HEIGHT": "150",
    "SENSOR_POSITION": "10",
    "INDUSTRY_IN_AREA": "1",
    "OVEN_IN_AREA": "8",
    "TRAFFIC_IN_AREA": "7",
    "LAT": "50.86463",
    "LON": "4.7407",
    "SDS011ID": "8795",
    "DHTID": "8796"
  },
  {
    "STREET_NAME": "Kleine Huizenstraat",
    "STREET_EXTRA": "",
    "POSTALCODE": "3012",
    "CITY": "Wilsele",
    "HEIGHT": "390",
    "SENSOR_POSITION": "10",
    "INDUSTRY_IN_AREA": "1",
    "OVEN_IN_AREA": "3",
    "TRAFFIC_IN_AREA": "3",
    "LAT": "50.89141",
    "LON": "4.6965",
    "SDS011ID": "8799",
    "DHTID": "8800"
  },
  {
    "STREET_NAME": "Leopold Ruelensstraat",
    "STREET_EXTRA": "",
    "POSTALCODE": "3010",
    "CITY": "Kessel-Lo",
    "HEIGHT": "250",
    "SENSOR_POSITION": "10",
    "INDUSTRY_IN_AREA": "1",
    "OVEN_IN_AREA": "2",
    "TRAFFIC_IN_AREA": "3",
    "LAT": "50.89085",
    "LON": "4.7260",
    "SDS011ID": "8803",
    "DHTID": "8804"
  },
  {
    "STREET_NAME": "Mechelsevest",
    "STREET_EXTRA": "",
    "POSTALCODE": "3000",
    "CITY": "Leuven",
    "HEIGHT": "650",
    "SENSOR_POSITION": "10",
    "INDUSTRY_IN_AREA": "9",
    "OVEN_IN_AREA": "2",
    "TRAFFIC_IN_AREA": "10",
    "LAT": "50.88855",
    "LON": "4.6923",
    "SDS011ID": "8805",
    "DHTID": "8806"
  },
  {
    "STREET_NAME": "Dekenstraat",
    "STREET_EXTRA": "",
    "POSTALCODE": "3000",
    "CITY": "Leuven",
    "HEIGHT": "240",
    "SENSOR_POSITION": "10",
    "INDUSTRY_IN_AREA": "1",
    "OVEN_IN_AREA": "1",
    "TRAFFIC_IN_AREA": "10",
    "LAT": "50.87305",
    "LON": "4.7111",
    "SDS011ID": "8813",
    "DHTID": "8814"
  },
  {
    "STREET_NAME": "Koetsweg",
    "STREET_EXTRA": "",
    "POSTALCODE": "3010",
    "CITY": "Kessel-Lo",
    "HEIGHT": "250",
    "SENSOR_POSITION": "10",
    "INDUSTRY_IN_AREA": "1",
    "OVEN_IN_AREA": "3",
    "TRAFFIC_IN_AREA": "4",
    "LAT": "50.87579",
    "LON": "4.7367",
    "SDS011ID": "8819",
    "DHTID": "8820"
  },
  {
    "STREET_NAME": "Brusselsestraat",
    "STREET_EXTRA": "einde",
    "POSTALCODE": "3000",
    "CITY": "Leuven",
    "HEIGHT": "350",
    "SENSOR_POSITION": "10",
    "INDUSTRY_IN_AREA": "1",
    "OVEN_IN_AREA": "1",
    "TRAFFIC_IN_AREA": "10",
    "LAT": "50.88254",
    "LON": "4.6855",
    "SDS011ID": "8821",
    "DHTID": "8822"
  },
  {
    "STREET_NAME": "Herentsesteenweg",
    "STREET_EXTRA": "",
    "POSTALCODE": "3012",
    "CITY": "Wilsele",
    "HEIGHT": "275",
    "SENSOR_POSITION": "10",
    "INDUSTRY_IN_AREA": "1",
    "OVEN_IN_AREA": "1",
    "TRAFFIC_IN_AREA": "5",
    "LAT": "50.90440",
    "LON": "4.6942",
    "SDS011ID": "8823",
    "DHTID": "8824"
  },
  {
    "STREET_NAME": "Bierbeekstraat",
    "STREET_EXTRA": "",
    "POSTALCODE": "3001",
    "CITY": "Heverlee",
    "HEIGHT": "200",
    "SENSOR_POSITION": "10",
    "INDUSTRY_IN_AREA": "1",
    "OVEN_IN_AREA": "2",
    "TRAFFIC_IN_AREA": "6",
    "LAT": "50.87281",
    "LON": "4.7149",
    "SDS011ID": "8825",
    "DHTID": "8826"
  },
  {
    "STREET_NAME": "Naamsesteenweg",
    "STREET_EXTRA": "thv BPost",
    "POSTALCODE": "3001",
    "CITY": "Heverlee",
    "HEIGHT": "400",
    "SENSOR_POSITION": "3",
    "INDUSTRY_IN_AREA": "1",
    "OVEN_IN_AREA": "2",
    "TRAFFIC_IN_AREA": "6",
    "LAT": "50.85503",
    "LON": "4.6960",
    "SDS011ID": "8827",
    "DHTID": "8828"
  },
  {
    "STREET_NAME": "Leopold Decouxlaan",
    "STREET_EXTRA": "",
    "POSTALCODE": "3012",
    "CITY": "Wilsele",
    "HEIGHT": "210",
    "SENSOR_POSITION": "5",
    "INDUSTRY_IN_AREA": "1",
    "OVEN_IN_AREA": "5",
    "TRAFFIC_IN_AREA": "6",
    "LAT": "50.89223",
    "LON": "4.6960",
    "SDS011ID": "8829",
    "DHTID": "8830"
  },
  {
    "STREET_NAME": "Generaal Lemanstraat",
    "STREET_EXTRA": "",
    "POSTALCODE": "1560",
    "CITY": "Hoeilaart",
    "HEIGHT": "300",
    "SENSOR_POSITION": "8",
    "INDUSTRY_IN_AREA": "5",
    "OVEN_IN_AREA": "6",
    "TRAFFIC_IN_AREA": "5",
    "LAT": "50.75602",
    "LON": "4.4713",
    "SDS011ID": "8831",
    "DHTID": "8832"
  },
  {
    "STREET_NAME": "Borstelsstraat",
    "STREET_EXTRA": "",
    "POSTALCODE": "3010",
    "CITY": "Kessel-Lo",
    "HEIGHT": "200",
    "SENSOR_POSITION": "10",
    "INDUSTRY_IN_AREA": "1",
    "OVEN_IN_AREA": "5",
    "TRAFFIC_IN_AREA": "7",
    "LAT": "50.88952",
    "LON": "4.7306",
    "SDS011ID": "8833",
    "DHTID": "8834"
  },
  {
    "STREET_NAME": "Holsbeeksesteenweg",
    "STREET_EXTRA": "",
    "POSTALCODE": "3010",
    "CITY": "Kessel-Lo",
    "HEIGHT": "300",
    "SENSOR_POSITION": "9",
    "INDUSTRY_IN_AREA": "1",
    "OVEN_IN_AREA": "4",
    "TRAFFIC_IN_AREA": "7",
    "LAT": "50.89230",
    "LON": "4.7305",
    "SDS011ID": "8835",
    "DHTID": "8836"
  },
  {
    "STREET_NAME": "Amerikalaan",
    "STREET_EXTRA": "",
    "POSTALCODE": "3000",
    "CITY": "Leuven",
    "HEIGHT": "260",
    "SENSOR_POSITION": "10",
    "INDUSTRY_IN_AREA": "1",
    "OVEN_IN_AREA": "1",
    "TRAFFIC_IN_AREA": "8",
    "LAT": "50.88064",
    "LON": "4.6978",
    "SDS011ID": "8837",
    "DHTID": "8838"
  },
  {
    "STREET_NAME": "Abdijstraat",
    "STREET_EXTRA": "",
    "POSTALCODE": "3001",
    "CITY": "Heverlee",
    "HEIGHT": "200",
    "SENSOR_POSITION": "10",
    "INDUSTRY_IN_AREA": "1",
    "OVEN_IN_AREA": "3",
    "TRAFFIC_IN_AREA": "8",
    "LAT": "50.86166",
    "LON": "4.7134",
    "SDS011ID": "8839",
    "DHTID": "8840"
  },
  {
    "STREET_NAME": "Watervloedstraat",
    "STREET_EXTRA": "",
    "POSTALCODE": "3012",
    "CITY": "Wilsele",
    "HEIGHT": "300",
    "SENSOR_POSITION": "10",
    "INDUSTRY_IN_AREA": "8",
    "OVEN_IN_AREA": "3",
    "TRAFFIC_IN_AREA": "8",
    "LAT": "50.90091",
    "LON": "4.6957",
    "SDS011ID": "8841",
    "DHTID": "8842"
  },
  {
    "STREET_NAME": "Diestsesteenweg",
    "STREET_EXTRA": "thv J. Davidsstraat",
    "POSTALCODE": "3010",
    "CITY": "Kessel-Lo",
    "HEIGHT": "310",
    "SENSOR_POSITION": "9",
    "INDUSTRY_IN_AREA": "1",
    "OVEN_IN_AREA": "3",
    "TRAFFIC_IN_AREA": "8",
    "LAT": "50.88756",
    "LON": "4.7501",
    "SDS011ID": "8845",
    "DHTID": "8846"
  },
  {
    "STREET_NAME": "Leeuwerikenstraat",
    "STREET_EXTRA": "",
    "POSTALCODE": "3001",
    "CITY": "Heverlee",
    "HEIGHT": "800",
    "SENSOR_POSITION": "2",
    "INDUSTRY_IN_AREA": "2",
    "OVEN_IN_AREA": "4",
    "TRAFFIC_IN_AREA": "4",
    "LAT": "50.86070",
    "LON": "4.6985",
    "SDS011ID": "8849",
    "DHTID": "12054"
  },
  {
    "STREET_NAME": "Pater Perquylaan",
    "STREET_EXTRA": "",
    "POSTALCODE": "3001",
    "CITY": "Heverlee",
    "HEIGHT": "300",
    "SENSOR_POSITION": "9",
    "INDUSTRY_IN_AREA": "1",
    "OVEN_IN_AREA": "5",
    "TRAFFIC_IN_AREA": "5",
    "LAT": "50.85799",
    "LON": "4.6930",
    "SDS011ID": "8853",
    "DHTID": "8854"
  },
  {
    "STREET_NAME": "Desir\u00e9 Mellaertsstraat",
    "STREET_EXTRA": "",
    "POSTALCODE": "3010",
    "CITY": "Kessel-Lo",
    "HEIGHT": "310",
    "SENSOR_POSITION": "10",
    "INDUSTRY_IN_AREA": "1",
    "OVEN_IN_AREA": "7",
    "TRAFFIC_IN_AREA": "6",
    "LAT": "50.88279",
    "LON": "4.7293",
    "SDS011ID": "8855",
    "DHTID": "8856"
  },
  {
    "STREET_NAME": "Leuvensesteenweg",
    "STREET_EXTRA": "thv Demarsinstraat",
    "POSTALCODE": "3012",
    "CITY": "Wilsele",
    "HEIGHT": "300",
    "SENSOR_POSITION": "9",
    "INDUSTRY_IN_AREA": "1",
    "OVEN_IN_AREA": "1",
    "TRAFFIC_IN_AREA": "5",
    "LAT": "50.90389",
    "LON": "4.6959",
    "SDS011ID": "8857",
    "DHTID": "8858"
  },
  {
    "STREET_NAME": "Losting",
    "STREET_EXTRA": "",
    "POSTALCODE": "3221",
    "CITY": "Holsbeek",
    "HEIGHT": "230",
    "SENSOR_POSITION": "10",
    "INDUSTRY_IN_AREA": "1",
    "OVEN_IN_AREA": "9",
    "TRAFFIC_IN_AREA": "6",
    "LAT": "50.94770",
    "LON": "4.8329",
    "SDS011ID": "8859",
    "DHTID": "8860"
  },
  {
    "STREET_NAME": "Van Rodestraat",
    "STREET_EXTRA": "",
    "POSTALCODE": "3010",
    "CITY": "Kessel-Lo",
    "HEIGHT": "",
    "SENSOR_POSITION": "",
    "INDUSTRY_IN_AREA": "",
    "OVEN_IN_AREA": "",
    "TRAFFIC_IN_AREA": "",
    "LAT": "50.88938",
    "LON": "4.7231",
    "SDS011ID": "8950",
    "DHTID": "8951"
  },
  {
    "STREET_NAME": "Sluisstraat",
    "STREET_EXTRA": "Sluispark",
    "POSTALCODE": "3000",
    "CITY": "Leuven",
    "HEIGHT": "1700",
    "SENSOR_POSITION": "5",
    "INDUSTRY_IN_AREA": "2",
    "OVEN_IN_AREA": "3",
    "TRAFFIC_IN_AREA": "5",
    "LAT": "50.88612",
    "LON": "4.6978",
    "SDS011ID": "8993",
    "DHTID": "8994"
  },
  {
    "STREET_NAME": "Ketelmakerij",
    "STREET_EXTRA": "",
    "POSTALCODE": "3010",
    "CITY": "Kessel-Lo",
    "HEIGHT": "350",
    "SENSOR_POSITION": "10",
    "INDUSTRY_IN_AREA": "2",
    "OVEN_IN_AREA": "1",
    "TRAFFIC_IN_AREA": "5",
    "LAT": "50.88308",
    "LON": "4.7238",
    "SDS011ID": "9555",
    "DHTID": "9556"
  },
  {
    "STREET_NAME": "Dellenhof",
    "STREET_EXTRA": "",
    "POSTALCODE": "3001",
    "CITY": "Heverlee",
    "HEIGHT": "300",
    "SENSOR_POSITION": "9",
    "INDUSTRY_IN_AREA": "1",
    "OVEN_IN_AREA": "3",
    "TRAFFIC_IN_AREA": "5",
    "LAT": "50.85952",
    "LON": "4.6474",
    "SDS011ID": "9559",
    "DHTID": "9560"
  },
  {
    "STREET_NAME": "Emile Mathieustraat",
    "STREET_EXTRA": "",
    "POSTALCODE": "3000",
    "CITY": "Leuven",
    "HEIGHT": "300",
    "SENSOR_POSITION": "10",
    "INDUSTRY_IN_AREA": "1",
    "OVEN_IN_AREA": "3",
    "TRAFFIC_IN_AREA": "1",
    "LAT": "50.86932",
    "LON": "4.7019",
    "SDS011ID": "9563",
    "DHTID": "9564"
  },
  {
    "STREET_NAME": "Langendaallaan",
    "STREET_EXTRA": "",
    "POSTALCODE": "3001",
    "CITY": "Heverlee",
    "HEIGHT": "400",
    "SENSOR_POSITION": "10",
    "INDUSTRY_IN_AREA": "1",
    "OVEN_IN_AREA": "8",
    "TRAFFIC_IN_AREA": "3",
    "LAT": "50.86157",
    "LON": "4.7115",
    "SDS011ID": "9567",
    "DHTID": "9568"
  },
  {
    "STREET_NAME": "Ren\u00e9 Verbeeckstraat",
    "STREET_EXTRA": "",
    "POSTALCODE": "3012",
    "CITY": "Wilsele",
    "HEIGHT": "220",
    "SENSOR_POSITION": "7",
    "INDUSTRY_IN_AREA": "2",
    "OVEN_IN_AREA": "8",
    "TRAFFIC_IN_AREA": "2",
    "LAT": "50.89482",
    "LON": "4.7019",
    "SDS011ID": "9569",
    "DHTID": "9570"
  },
  {
    "STREET_NAME": "Stadionlaan",
    "STREET_EXTRA": "",
    "POSTALCODE": "3010",
    "CITY": "Kessel-Lo",
    "HEIGHT": "230",
    "SENSOR_POSITION": "10",
    "INDUSTRY_IN_AREA": "1",
    "OVEN_IN_AREA": "5",
    "TRAFFIC_IN_AREA": "10",
    "LAT": "50.88155",
    "LON": "4.7353",
    "SDS011ID": "9571",
    "DHTID": "9572"
  },
  {
    "STREET_NAME": "Naamsesteenweg",
    "STREET_EXTRA": "Heilig Hartinstituut",
    "POSTALCODE": "3001",
    "CITY": "Heverlee",
    "HEIGHT": "300",
    "SENSOR_POSITION": "1",
    "INDUSTRY_IN_AREA": "2",
    "OVEN_IN_AREA": "1",
    "TRAFFIC_IN_AREA": "1",
    "LAT": "50.85774",
    "LON": "4.6984",
    "SDS011ID": "9577",
    "DHTID": "9578"
  },
  {
    "STREET_NAME": "Philipslaan",
    "STREET_EXTRA": "",
    "POSTALCODE": "3000",
    "CITY": "Leuven",
    "HEIGHT": "300",
    "SENSOR_POSITION": "6",
    "INDUSTRY_IN_AREA": "1",
    "OVEN_IN_AREA": "5",
    "TRAFFIC_IN_AREA": "4",
    "LAT": "50.86766",
    "LON": "4.7318",
    "SDS011ID": "9579",
    "DHTID": "9580"
  },
  {
    "STREET_NAME": "Dagobertstraat",
    "STREET_EXTRA": "",
    "POSTALCODE": "3000",
    "CITY": "Leuven",
    "HEIGHT": "250",
    "SENSOR_POSITION": "5",
    "INDUSTRY_IN_AREA": "8",
    "OVEN_IN_AREA": "4",
    "TRAFFIC_IN_AREA": "8",
    "LAT": "50.87561",
    "LON": "4.7145",
    "SDS011ID": "9585",
    "DHTID": "9586"
  },
  {
    "STREET_NAME": "Gemeentestraat",
    "STREET_EXTRA": "",
    "POSTALCODE": "3010",
    "CITY": "Kessel-Lo",
    "HEIGHT": "350",
    "SENSOR_POSITION": "10",
    "INDUSTRY_IN_AREA": "5",
    "OVEN_IN_AREA": "5",
    "TRAFFIC_IN_AREA": "7",
    "LAT": "50.88959",
    "LON": "4.7267",
    "SDS011ID": "9587",
    "DHTID": "9588"
  },
  {
    "STREET_NAME": "L\u00e9on Schreursvest",
    "STREET_EXTRA": "",
    "POSTALCODE": "3001",
    "CITY": "Heverlee",
    "HEIGHT": "450",
    "SENSOR_POSITION": "10",
    "INDUSTRY_IN_AREA": "1",
    "OVEN_IN_AREA": "2",
    "TRAFFIC_IN_AREA": "8",
    "LAT": "50.87188",
    "LON": "4.7131",
    "SDS011ID": "9593",
    "DHTID": "9594"
  },
  {
    "STREET_NAME": "Albrecht Rodenbachstraat",
    "STREET_EXTRA": "",
    "POSTALCODE": "3010",
    "CITY": "Kessel-Lo",
    "HEIGHT": "300",
    "SENSOR_POSITION": "10",
    "INDUSTRY_IN_AREA": "1",
    "OVEN_IN_AREA": "5",
    "TRAFFIC_IN_AREA": "3",
    "LAT": "50.89025",
    "LON": "4.7234",
    "SDS011ID": "9597",
    "DHTID": "9598"
  },
  {
    "STREET_NAME": "Verenigingstraat",
    "STREET_EXTRA": "",
    "POSTALCODE": "3010",
    "CITY": "Kessel-Lo",
    "HEIGHT": "350",
    "SENSOR_POSITION": "9",
    "INDUSTRY_IN_AREA": "3",
    "OVEN_IN_AREA": "5",
    "TRAFFIC_IN_AREA": "7",
    "LAT": "50.87329",
    "LON": "4.7311",
    "SDS011ID": "9599",
    "DHTID": "9600"
  },
  {
    "STREET_NAME": "Arthur De Greefstraat",
    "STREET_EXTRA": "",
    "POSTALCODE": "3000",
    "CITY": "Leuven",
    "HEIGHT": "200",
    "SENSOR_POSITION": "10",
    "INDUSTRY_IN_AREA": "1",
    "OVEN_IN_AREA": "4",
    "TRAFFIC_IN_AREA": "7",
    "LAT": "50.87506",
    "LON": "4.6893",
    "SDS011ID": "9605",
    "DHTID": "9606"
  },
  {
    "STREET_NAME": "Schapenstraat",
    "STREET_EXTRA": "",
    "POSTALCODE": "3000",
    "CITY": "Leuven",
    "HEIGHT": "500",
    "SENSOR_POSITION": "10",
    "INDUSTRY_IN_AREA": "1",
    "OVEN_IN_AREA": "5",
    "TRAFFIC_IN_AREA": "6",
    "LAT": "50.87064",
    "LON": "4.6980",
    "SDS011ID": "9609",
    "DHTID": "9610"
  },
  {
    "STREET_NAME": "'s-Hertogenlaan",
    "STREET_EXTRA": "",
    "POSTALCODE": "3000",
    "CITY": "Leuven",
    "HEIGHT": "210",
    "SENSOR_POSITION": "1",
    "INDUSTRY_IN_AREA": "1",
    "OVEN_IN_AREA": "5",
    "TRAFFIC_IN_AREA": "3",
    "LAT": "50.88605",
    "LON": "4.6840",
    "SDS011ID": "9619",
    "DHTID": "9620"
  },
  {
    "STREET_NAME": "Bornestraat",
    "STREET_EXTRA": "",
    "POSTALCODE": "3012",
    "CITY": "Wilsele",
    "HEIGHT": "200",
    "SENSOR_POSITION": "3",
    "INDUSTRY_IN_AREA": "2",
    "OVEN_IN_AREA": "7",
    "TRAFFIC_IN_AREA": "7",
    "LAT": "50.90620",
    "LON": "4.7002",
    "SDS011ID": "9621",
    "DHTID": "9622"
  },
  {
    "STREET_NAME": "Martelarenlaan",
    "STREET_EXTRA": "",
    "POSTALCODE": "3010",
    "CITY": "Kessel-Lo",
    "HEIGHT": "500",
    "SENSOR_POSITION": "10",
    "INDUSTRY_IN_AREA": "3",
    "OVEN_IN_AREA": "1",
    "TRAFFIC_IN_AREA": "8",
    "LAT": "50.88200",
    "LON": "4.7174",
    "SDS011ID": "9623",
    "DHTID": "9624"
  },
  {
    "STREET_NAME": "Gebroeders Tassetstraat",
    "STREET_EXTRA": "",
    "POSTALCODE": "3018",
    "CITY": "Wijgmaal",
    "HEIGHT": "280",
    "SENSOR_POSITION": "8",
    "INDUSTRY_IN_AREA": "9",
    "OVEN_IN_AREA": "3",
    "TRAFFIC_IN_AREA": "7",
    "LAT": "50.92465",
    "LON": "4.6971",
    "SDS011ID": "9625",
    "DHTID": "9626"
  },
  {
    "STREET_NAME": "Korbeek-losestraat",
    "STREET_EXTRA": "",
    "POSTALCODE": "3001",
    "CITY": "Heverlee",
    "HEIGHT": "300",
    "SENSOR_POSITION": "8",
    "INDUSTRY_IN_AREA": "1",
    "OVEN_IN_AREA": "1",
    "TRAFFIC_IN_AREA": "2",
    "LAT": "50.86951",
    "LON": "4.7242",
    "SDS011ID": "9633",
    "DHTID": "9634"
  },
  {
    "STREET_NAME": "Borstelsstraat",
    "STREET_EXTRA": "",
    "POSTALCODE": "3010",
    "CITY": "Kessel-Lo",
    "HEIGHT": "290",
    "SENSOR_POSITION": "9",
    "INDUSTRY_IN_AREA": "1",
    "OVEN_IN_AREA": "4",
    "TRAFFIC_IN_AREA": "8",
    "LAT": "50.88939",
    "LON": "4.7311",
    "SDS011ID": "9635",
    "DHTID": "9636"
  },
  {
    "STREET_NAME": "Geldenaaksebaan",
    "STREET_EXTRA": "",
    "POSTALCODE": "3001",
    "CITY": "Heverlee",
    "HEIGHT": "296",
    "SENSOR_POSITION": "10",
    "INDUSTRY_IN_AREA": "1",
    "OVEN_IN_AREA": "1",
    "TRAFFIC_IN_AREA": "8",
    "LAT": "50.86678",
    "LON": "4.7105",
    "SDS011ID": "9637",
    "DHTID": "9638"
  },
  {
    "STREET_NAME": "Rietgors",
    "STREET_EXTRA": "",
    "POSTALCODE": "3010",
    "CITY": "Kessel-Lo",
    "HEIGHT": "210",
    "SENSOR_POSITION": "9",
    "INDUSTRY_IN_AREA": "8",
    "OVEN_IN_AREA": "10",
    "TRAFFIC_IN_AREA": "3",
    "LAT": "50.89936",
    "LON": "4.7194",
    "SDS011ID": "9643",
    "DHTID": "9644"
  },
  {
    "STREET_NAME": "Ren\u00e9 Eversstraat",
    "STREET_EXTRA": "",
    "POSTALCODE": "3020",
    "CITY": "Herent",
    "HEIGHT": "200",
    "SENSOR_POSITION": "7",
    "INDUSTRY_IN_AREA": "1",
    "OVEN_IN_AREA": "7",
    "TRAFFIC_IN_AREA": "1",
    "LAT": "50.90869",
    "LON": "4.6622",
    "SDS011ID": "9753",
    "DHTID": "9754"
  },
  {
    "STREET_NAME": "Romeinse Ring",
    "STREET_EXTRA": "",
    "POSTALCODE": "3020",
    "CITY": "Herent",
    "HEIGHT": "150",
    "SENSOR_POSITION": "2",
    "INDUSTRY_IN_AREA": "1",
    "OVEN_IN_AREA": "3",
    "TRAFFIC_IN_AREA": "1",
    "LAT": "50.90098",
    "LON": "4.6726",
    "SDS011ID": "9801",
    "DHTID": "9802"
  },
  {
    "STREET_NAME": "Gezusters Gregoirestraat",
    "STREET_EXTRA": "",
    "POSTALCODE": "3010",
    "CITY": "Kessel-Lo",
    "HEIGHT": "270",
    "SENSOR_POSITION": "10",
    "INDUSTRY_IN_AREA": "1",
    "OVEN_IN_AREA": "1",
    "TRAFFIC_IN_AREA": "2",
    "LAT": "50.87654",
    "LON": "4.7386",
    "SDS011ID": "9812",
    "DHTID": "9813"
  },
  {
    "STREET_NAME": "Kapucijnenvoer",
    "STREET_EXTRA": "",
    "POSTALCODE": "3000",
    "CITY": "Leuven",
    "HEIGHT": "",
    "SENSOR_POSITION": "",
    "INDUSTRY_IN_AREA": "",
    "OVEN_IN_AREA": "",
    "TRAFFIC_IN_AREA": "",
    "LAT": "50.87633",
    "LON": "4.6908",
    "SDS011ID": "9825",
    "DHTID": "9826"
  },
  {
    "STREET_NAME": "Eugeen Vanhoorenbekelaan",
    "STREET_EXTRA": "",
    "POSTALCODE": "3010",
    "CITY": "Kessel-Lo",
    "HEIGHT": "200",
    "SENSOR_POSITION": "20",
    "INDUSTRY_IN_AREA": "2",
    "OVEN_IN_AREA": "5",
    "TRAFFIC_IN_AREA": "2",
    "LAT": "50.87751",
    "LON": "4.7410",
    "SDS011ID": "10045",
    "DHTID": "10046"
  },
  {
    "STREET_NAME": "Tervuursevest",
    "STREET_EXTRA": "",
    "POSTALCODE": "3001",
    "CITY": "Heverlee",
    "HEIGHT": "250",
    "SENSOR_POSITION": "9",
    "INDUSTRY_IN_AREA": "1",
    "OVEN_IN_AREA": "5",
    "TRAFFIC_IN_AREA": "10",
    "LAT": "50.87540",
    "LON": "4.6853",
    "SDS011ID": "10741",
    "DHTID": "10742"
  },
  {
    "STREET_NAME": "Holsbeeksesteenweg",
    "STREET_EXTRA": "",
    "POSTALCODE": "3010",
    "CITY": "Kessel-Lo",
    "HEIGHT": "310",
    "SENSOR_POSITION": "10",
    "INDUSTRY_IN_AREA": "1",
    "OVEN_IN_AREA": "4",
    "TRAFFIC_IN_AREA": "5",
    "LAT": "50.89241",
    "LON": "4.7299",
    "SDS011ID": "11201",
    "DHTID": "11202"
  },
  {
    "STREET_NAME": "Ridderstraat",
    "STREET_EXTRA": "",
    "POSTALCODE": "3000",
    "CITY": "Leuven",
    "HEIGHT": "400",
    "SENSOR_POSITION": "10",
    "INDUSTRY_IN_AREA": "1",
    "OVEN_IN_AREA": "1",
    "TRAFFIC_IN_AREA": "4",
    "LAT": "50.88594",
    "LON": "4.6934",
    "SDS011ID": "11529",
    "DHTID": "11530"
  },
  {
    "STREET_NAME": "Pleinstraat",
    "STREET_EXTRA": "",
    "POSTALCODE": "3001",
    "CITY": "Heverlee",
    "HEIGHT": "300",
    "SENSOR_POSITION": "10",
    "INDUSTRY_IN_AREA": "1",
    "OVEN_IN_AREA": "5",
    "TRAFFIC_IN_AREA": "5",
    "LAT": "50.87185",
    "LON": "4.7148",
    "SDS011ID": "12030",
    "DHTID": "12031"
  },
  {
    "STREET_NAME": "De Herk",
    "STREET_EXTRA": "",
    "POSTALCODE": "3060",
    "CITY": "Bertem",
    "HEIGHT": "220",
    "SENSOR_POSITION": "7",
    "INDUSTRY_IN_AREA": "3",
    "OVEN_IN_AREA": "5",
    "TRAFFIC_IN_AREA": "5",
    "LAT": "50.86397",
    "LON": "4.6333",
    "SDS011ID": "12183",
    "DHTID": "12184"
  },
  {
    "STREET_NAME": "Celestijnenlaan",
    "STREET_EXTRA": "",
    "POSTALCODE": "3001",
    "CITY": "Heverlee",
    "HEIGHT": "160",
    "SENSOR_POSITION": "10",
    "INDUSTRY_IN_AREA": "1",
    "OVEN_IN_AREA": "1",
    "TRAFFIC_IN_AREA": "10",
    "LAT": "50.86423",
    "LON": "4.6799",
    "SDS011ID": "12505",
    "DHTID": "12506"
  },
  {
    "STREET_NAME": "Broekstraat",
    "STREET_EXTRA": "",
    "POSTALCODE": "3001",
    "CITY": "Heverlee",
    "HEIGHT": "270",
    "SENSOR_POSITION": "10",
    "INDUSTRY_IN_AREA": "10",
    "OVEN_IN_AREA": "6",
    "TRAFFIC_IN_AREA": "9",
    "LAT": "50.86767",
    "LON": "4.7002",
    "SDS011ID": "12554",
    "DHTID": "12555"
  },
  {
    "STREET_NAME": "Holsbeeksesteenweg",
    "STREET_EXTRA": "",
    "POSTALCODE": "3010",
    "CITY": "Kessel-Lo",
    "HEIGHT": "400",
    "SENSOR_POSITION": "10",
    "INDUSTRY_IN_AREA": "1",
    "OVEN_IN_AREA": "5",
    "TRAFFIC_IN_AREA": "9",
    "LAT": "50.89568",
    "LON": "4.7308",
    "SDS011ID": "12609",
    "DHTID": "12610"
  },
  {
    "STREET_NAME": "Hoegaardsestraat",
    "STREET_EXTRA": "",
    "POSTALCODE": "3000",
    "CITY": "Leuven",
    "HEIGHT": "150",
    "SENSOR_POSITION": "10",
    "INDUSTRY_IN_AREA": "1",
    "OVEN_IN_AREA": "3",
    "TRAFFIC_IN_AREA": "2",
    "LAT": "50.86761",
    "LON": "4.7227",
    "SDS011ID": "12855",
    "DHTID": "12856"
  },
  {
    "STREET_NAME": "Ernest Solvaystraat",
    "STREET_EXTRA": "2\/3",
    "POSTALCODE": "3010",
    "CITY": "Kessel-Lo",
    "HEIGHT": "300",
    "SENSOR_POSITION": "10",
    "INDUSTRY_IN_AREA": "3",
    "OVEN_IN_AREA": "4",
    "TRAFFIC_IN_AREA": "7",
    "LAT": "50.88210",
    "LON": "4.7190",
    "SDS011ID": "13528",
    "DHTID": "13529"
  },
  {
    "STREET_NAME": "Kiezelstraat",
    "STREET_EXTRA": "",
    "POSTALCODE": "3078",
    "CITY": "Meerbeek",
    "HEIGHT": "400",
    "SENSOR_POSITION": "10",
    "INDUSTRY_IN_AREA": "1",
    "OVEN_IN_AREA": "8",
    "TRAFFIC_IN_AREA": "1",
    "LAT": "50.87060",
    "LON": "4.6052",
    "SDS011ID": "15986",
    "DHTID": "15987"
  },
  {
    "STREET_NAME": "Grensstraat",
    "STREET_EXTRA": "",
    "POSTALCODE": "3010",
    "CITY": "Kessel-Lo",
    "HEIGHT": "300",
    "SENSOR_POSITION": "10",
    "INDUSTRY_IN_AREA": "1",
    "OVEN_IN_AREA": "2",
    "TRAFFIC_IN_AREA": "6",
    "LAT": "50.87234",
    "LON": "4.7308",
    "SDS011ID": "16358",
    "DHTID": "16359"
  },
  {
    "STREET_NAME": "Huttelaan",
    "STREET_EXTRA": "",
    "POSTALCODE": "3001",
    "CITY": "Heverlee",
    "HEIGHT": "300",
    "SENSOR_POSITION": "7",
    "INDUSTRY_IN_AREA": "1",
    "OVEN_IN_AREA": "2",
    "TRAFFIC_IN_AREA": "3",
    "LAT": "50.85682",
    "LON": "4.6856",
    "SDS011ID": "16551",
    "DHTID": "16552"
  },
  {
    "STREET_NAME": "Dorpstraat",
    "STREET_EXTRA": "",
    "POSTALCODE": "3061",
    "CITY": "Leefdaal",
    "HEIGHT": "330",
    "SENSOR_POSITION": "10",
    "INDUSTRY_IN_AREA": "1",
    "OVEN_IN_AREA": "1",
    "TRAFFIC_IN_AREA": "6",
    "LAT": "50.85069",
    "LON": "4.5982",
    "SDS011ID": "19832",
    "DHTID": "19833"
  },
  {
    "STREET_NAME": "Pasteelsblokweg",
    "STREET_EXTRA": "",
    "POSTALCODE": "3010",
    "CITY": "Kessel-Lo",
    "HEIGHT": "50",
    "SENSOR_POSITION": "1",
    "INDUSTRY_IN_AREA": "1",
    "OVEN_IN_AREA": "1",
    "TRAFFIC_IN_AREA": "1",
    "LAT": "50.87830",
    "LON": "4.7618",
    "SDS011ID": "19850",
    "DHTID": "19851"
  }
]